     2.11           OBSERVATION DATA    G (GPS)             RINEX VERSION / TYPE
teqc  2015Nov6      root                20170306 03:43:28UTCPGM / RUN BY / DATE
Linux 2.4.21-27.ELsmp|Opteron|gcc|Linux x86_64|=+           COMMENT
teqc  2015Nov6      NOAA/NOS/NGS/CORS   20160106 03:33:55UTCCOMMENT
Solaris x86 5.10|AMD64|cc SC5.8 -xarch=amd64|=+|=+          COMMENT
teqc  2015Nov6      NOAA/NOS/NGS/CORS   20160106 03:33:39UTCCOMMENT
teqc  2015Nov6      UNAVCO Archive Ops  20160104 21:59:29UTCCOMMENT
BIT 2 OF LLI FLAGS DATA COLLECTED UNDER A/S CONDITION       COMMENT
input file: cat2201601010000a.tgd                           COMMENT
RINEX file created by UNAVCO GPS Archive.                   COMMENT
For more information contact archive@unavco.org             COMMENT
Monument ID: 18474                                          COMMENT
UNAVCO 4-char name:   CAT2                                  COMMENT
4-char name from Log or data file: CAT2                     COMMENT
Monument location: 33.311616 -118.333815 477.2619           COMMENT
Visit ID: 102361                                            COMMENT
End of DB comments                                          COMMENT
 SNR is mapped to RINEX snr flag value [0-9]                COMMENT
  L1 & L2: min(max(int(snr_dBHz/6), 0), 9)                  COMMENT
teqc edited: all SBAS satellites excluded                   COMMENT
teqc edited: all Compass satellites excluded                COMMENT
teqc edited: all QZSS satellites excluded                   COMMENT
Forced Modulo Decimation to 30 seconds                      COMMENT
CAT2                                                        MARKER NAME
49728M001                                                   MARKER NUMBER
Freddy Blume        UNAVCO                                  OBSERVER / AGENCY
4611206690          TRIMBLE NETRS       1.3-0               REC # / TYPE / VERS
CR519991910         ASH701945B_M    SCIT                    ANT # / TYPE
 -2532493.0840 -4696709.8100  3483154.4160                  APPROX POSITION XYZ
        0.0083        0.0000        0.0000                  ANTENNA: DELTA H/E/N
     1     1                                                WAVELENGTH FACT L1/2
     7    L1    L2    C1    P2    S1    S2    C2            # / TYPES OF OBSERV
    30.0000                                                 INTERVAL
teqc.w windowed: start @ 2016 Jan  1 00:00:00.000           COMMENT
teqc.w windowed:  end  @ 2016 Jan  2 00:00:00.000           COMMENT
teqc.w edited: all GLONASS satellites excluded              COMMENT
teqc.w edited: all SBAS satellites excluded                 COMMENT
teqc.w edited: all Galileo satellites excluded              COMMENT
teqc.w edited: all Compass satellites excluded              COMMENT
teqc.w edited: all QZSS satellites excluded                 COMMENT
  2016     1     1     0     0    0.0000000     GPS         TIME OF FIRST OBS
                                                            END OF HEADER
 16  1  1  0  0  0.0000000  0 11G32G06G07G03G31G11G01G26G09G23G16
 -24660036.996 8 -14397997.49646  21403321.703    21403316.031          50.500
        39.000
  -4971178.220 6  -3857349.905 6  25039790.016    25039791.613          37.600
        37.000    25039791.324
  -3614033.805 6  -3418523.811 5  25087777.805    25087780.398          37.000
        35.100    25087780.285
 -29787739.474 8 -23017581.979 8  20216025.578    20216021.141          50.200
        53.200    20216021.375
  -8194570.812 6  -6344715.517 6  23793880.406    23793875.027          41.100
        39.900    23793874.973
 -36578399.230 5                  25822031.633                          34.600

  -9857600.168 6  -7644726.135 6  23690537.195    23690537.680          38.300
        40.500    23690537.332
 -21331042.983 7 -16637451.605 7  21844755.273    21844752.125          44.200
        47.300    21844752.246
  -9959715.393 7  -8558921.548 6  23974681.984    23974682.234          42.000
        41.800    23974682.063
 -21418591.271 8 -15807046.56646  21737384.016    21737375.531          51.500
        38.200
 -22569754.626 7 -11203230.90145  21606247.703    21606241.504          45.800
        34.600
 16  1  1  0  0 30.0000000  0 11G32G06G07G03G31G11G01G26G09G23G16
 -24595170.180 8 -14347451.95946  21415665.570    21415659.957          49.200
        38.900
  -5016790.756 6  -3892892.220 6  25031110.023    25031111.797          36.900
        37.600    25031111.859
  -3704513.696 6  -3489027.252 5  25070559.625    25070562.805          37.200
        35.000    25070562.340
 -29788087.192 8 -23017852.941 8  20215959.625    20215955.012          51.800
        53.000    20215955.484
  -8096407.945 6  -6268224.969 6  23812560.398    23812553.789          40.900
        40.100    23812554.145
 -36506193.449 5                  25835772.359                          34.200

  -9768774.343 6  -7575511.417 6  23707440.734    23707441.336          37.500
        40.900    23707441.281
 -21330129.027 7 -16636739.391 7  21844930.586    21844926.969          45.700
        47.600    21844926.680
 -10033223.972 6  -8616200.800 6  23960694.469    23960694.016          41.300
        41.700    23960693.785
 -21467138.866 8 -15844875.80746  21728145.688    21728136.969          51.700
        38.200
 -22632182.276 7 -11251875.71945  21594368.672    21594361.828          45.600
        35.600
 16  1  1  0  1  0.0000000  0 11G32G06G07G03G31G11G01G26G09G23G16
 -24529932.807 8 -14296617.66446  21428079.953    21428074.105          50.200
        39.500
  -5061934.107 5  -3928068.943 6  25022519.492    25022521.207          34.600
        37.900    25022521.504
  -3794860.371 6  -3559426.905 5  25053366.742    25053368.633          37.700
        35.400    25053368.637
 -29787892.308 8 -23017701.091 8  20215996.531    20215991.918          53.000
        52.800    20215992.211
  -7998226.911 7  -6191720.293 6  23831243.766    23831237.859          42.600
        40.200    23831237.805
 -36434214.699 5                  25849468.992                          34.100

  -9679873.953 6  -7506238.577 6  23724358.086    23724358.395          38.400
        41.400    23724358.574
 -21328632.378 7 -16635573.137 7  21845214.188    21845210.922          46.000
        47.400    21845210.867
 -10106726.470 6  -8673475.286 6  23946707.320    23946706.867          41.600
        41.800    23946706.813
 -21515595.747 8 -15882634.35446  21718924.664    21718916.473          51.700
        37.700
 -22694117.437 7 -11300136.78845  21582583.039    21582575.844          46.600
        35.700
 16  1  1  0  1 30.0000000  0 11G32G06G07G03G31G11G01G26G09G23G16
 -24464324.892 8 -14245494.64346  21440564.445    21440558.891          49.900
        38.900
  -5106606.006 6  -3962878.267 6  25014018.242    25014020.484          36.900
        38.000    25014021.191
  -3885071.901 6  -3629721.255 5  25036199.852    25036201.684          37.100
        35.200    25036201.922
 -29787153.058 8 -23017125.058 8  20216136.828    20216132.391          51.300
        53.100    20216132.805
  -7900028.662 6  -6115202.193 6  23849929.414    23849924.211          41.900
        40.300    23849924.449
 -36362464.371 5                  25863124.023                          35.400

  -9590901.101 6  -7436909.266 6  23741288.547    23741289.266          38.100
        41.600    23741289.328
 -21326551.712 7 -16633951.804 7  21845609.695    21845606.547          44.100
        47.900    21845606.199
 -10180221.656 7  -8730744.080 6  23932721.000    23932720.898          42.000
        41.600    23932720.609
 -21563960.453 8 -15920321.07846  21709721.109    21709712.508          52.000
        38.700
 -22755556.228 7 -11348011.07545  21570891.023    21570884.648          45.000
        35.500
 16  1  1  0  2  0.0000000  0 11G32G06G07G03G31G11G01G26G09G23G16
 -24398347.597 8 -14194083.80846  21453119.813    21453114.082          49.300
        39.200
  -5150805.408 6  -3997319.399 6  25005607.742    25005609.984          36.900
        36.600    25005609.461
  -3975147.340 6  -3699909.589 5  25019058.555    25019060.797          37.600
        34.700    25019060.391
 -29785868.710 8 -23016124.262 8  20216380.961    20216377.051          50.500
        52.700    20216377.699
  -7801814.826 6  -6038671.951 6  23868619.688    23868613.605          41.300
        39.700    23868613.668
 -36290943.674 5                  25876734.984                          35.300

  -9501858.753 6  -7367525.807 7  23758233.227    23758234.121          39.200
        42.000    23758233.949
 -21323886.776 7 -16631875.201 7  21846117.023    21846113.641          47.100
        47.300    21846113.586
 -10253709.489 6  -8788007.119 6  23918736.820    23918736.543          41.800
        41.800    23918736.488
 -21612232.380 8 -15957935.50946  21700535.383    21700526.254          51.800
        38.200
 -22816495.695 7 -11395496.27645  21559294.391    21559288.074          46.400
        35.700
 16  1  1  0  2 30.0000000  0 11G32G06G07G03G31G11G01G26G09G23G16
 -24332002.351 8 -14142386.23446  21465744.914    21465738.949          49.900
        39.400
  -5194531.543 6  -4031391.725 6  24997287.508    24997289.047          36.300
        37.100    24997288.523
  -4065085.831 6  -3769991.222 5  25001944.969    25001945.277          38.900
        33.400    25001945.164
 -29784039.040 8 -23014698.533 8  20216729.914    20216725.242          51.400
        53.000    20216725.652
  -7703587.752 7  -5962131.395 6  23887311.563    23887305.539          42.400
        39.900    23887306.012
 -36219655.407 5                  25890300.656                          34.600

  -9412750.362 6  -7298090.894 7  23775190.438    23775191.215          39.900
        42.600    23775190.516
 -21320637.748 7 -16629343.457 7  21846735.570    21846732.070          46.400
        47.900    21846731.957
 -10327190.158 6  -8845264.554 6  23904753.695    23904753.477          41.300
        41.900    23904753.656
 -21660411.222 8 -15995477.39946  21691367.164    21691358.094          51.600
        38.800
 -22876933.531 7 -11442590.59345  21547793.539    21547786.930          46.300
        35.600
 16  1  1  0  3  0.0000000  0 11G32G06G07G03G31G11G01G26G09G23G16
 -24265289.885 8 -14090402.52346  21478439.773    21478434.336          49.400
        38.400
  -5237783.000 6  -4065094.142 6  24989056.836    24989058.023          38.200
        38.200    24989058.555
  -4154886.136 6  -3839965.186 5  24984855.070    24984856.551          38.400
        33.800    24984856.145
 -29781662.939 8 -23012847.018 8  20217182.117    20217177.563          51.300
        52.600    20217177.797
  -7605349.058 6  -5885581.795 6  23906005.383    23905999.945          41.200
        40.000    23906000.184
 -36148601.413 5                  25903823.109                          33.800

  -9323578.602 6  -7228606.598 7  23792159.258    23792159.801          40.300
        42.100    23792159.805
 -21316804.023 7 -16626356.100 8  21847464.766    21847461.559          45.200
        48.000    21847461.680
 -10400663.101 7  -8902515.965 6  23890771.828    23890771.844          42.000
        41.500    23890771.555
 -21708496.139 8 -16032946.09346  21682216.703    21682207.984          52.000
        38.200
 -22936866.521 7 -11489291.52845  21536388.500    21536381.656          46.400
        35.900
 16  1  1  0  3 30.0000000  0 11G32G06G07G03G31G11G01G26G09G23G16
 -24198211.423 8 -14038133.63646  21491204.711    21491198.922          49.000
        38.800
  -5280558.822 6  -4098425.902 6  24980917.125    24980918.664          37.400
        37.800    24980918.961
  -4244547.476 6  -3909830.888 5  24967793.469    24967794.715          37.400
        34.000    24967794.426
 -29778739.929 8 -23010569.332 8  20217738.039    20217733.777          51.300
        53.000    20217733.836
  -7507100.216 6  -5809024.292 6  23924702.148    23924696.477          41.500
        39.000    23924696.598
 -36077783.392 5                  25917298.367                          35.400

  -9234346.525 6  -7159075.289 7  23809139.266    23809140.395          39.800
        42.500    23809140.281
 -21312385.617 7 -16622913.150 7  21848305.359    21848302.387          46.400
        47.600    21848302.625
 -10474128.408 7  -8959761.418 6  23876792.047    23876791.359          42.300
        41.700    23876791.422
 -21756486.862 8 -16070341.39246  21673084.367    21673075.355          51.600
        38.900
 -22996292.372 7 -11535597.28746  21525080.438    21525073.652          45.800
        36.200
 16  1  1  0  4  0.0000000  0 11G32G06G07G03G31G11G01G26G09G23G16
 -24130767.756 8 -13985580.15746  21504038.594    21504032.746          48.700
        39.400
  -5322857.654 6  -4131385.964 6  24972866.266    24972869.445          36.900
        38.200    24972869.801
  -4334068.466 6  -3979587.219 5  24950758.602    24950758.969          37.600
        34.800    24950758.973
 -29775269.073 8 -23007864.745 8  20218398.508    20218394.012          49.400
        52.500    20218394.484
  -7408843.093 6  -5732460.305 6  23943399.813    23943393.496          41.300
        39.600    23943394.145
 -36007203.027 5                  25930729.242                          33.400

  -9145056.789 6  -7089499.054 7  23826130.805    23826131.641          39.900
        42.600    23826131.703
 -21307381.958 7 -16619014.150 8  21849257.625    21849254.711          44.100
        48.100    21849254.656
 -10547585.524 7  -9017000.476 6  23862813.719    23862812.973          42.500
        41.700    23862812.801
 -21804382.359 8 -16107662.48846  21663970.148    21663960.961          51.900
        38.800
 -23055207.971 7 -11581505.45346  21513868.688    21513862.723          45.800
        36.600
 16  1  1  0  4 30.0000000  0 11G32G06G07G03G31G11G01G26G09G23G16
 -24062960.190 8 -13932743.13546  21516941.883    21516936.270          48.400
        39.000
  -5364678.547 6  -4163973.605 6  24964909.086    24964910.566          37.400
        37.900    24964910.980
  -4423448.338 6  -4049233.617 5  24933748.844    24933749.914          37.700
        34.700    24933749.742
 -29771249.823 8 -23004732.850 8  20219163.344    20219158.730          51.200
        53.100    20219159.262
  -7310579.691 6  -5655891.447 6  23962098.227    23962092.965          41.100
        40.200    23962093.496
 -35936862.230 5                  25944115.500                          35.200

  -9055712.572 6  -7019880.359 7  23843132.969    23843133.805          40.600
        42.500    23843133.457
 -21301793.062 7 -16614659.124 7  21850321.164    21850317.605          47.100
        47.200    21850317.609
 -10621034.417 6  -9074233.109 6  23848836.000    23848835.723          40.800
        41.900    23848836.371
 -21852181.991 8 -16144908.88146  21654874.172    21654865.336          51.100
        39.400
 -23113610.531 7 -11627013.84346  21502755.320    21502748.594          46.600
        36.200
 16  1  1  0  5  0.0000000  0 11G32G06G07G03G31G11G01G26G09G23G16
 -23994789.822 8 -13879623.41846  21529914.258    21529908.938          48.000
        38.500
  -5406020.550 6  -4196188.091 6  24957042.289    24957043.711          37.500
        37.900    24957043.773
  -4512685.813 6  -4118769.074 5  24916766.383    24916768.566          37.700
        34.400    24916767.984
 -29766681.674 8 -23001173.253 8  20220032.563    20220028.066          51.400
        53.000    20220028.359
  -7212311.651 6  -5579318.963 6  23980797.875    23980792.555          39.900
        39.400    23980792.207
 -35866763.098 5                  25957454.930                          34.600

  -8966316.895 6  -6950221.569 7  23860144.250    23860145.672          39.700
        42.200    23860145.148
 -21295618.876 7 -16609848.025 7  21851496.000    21851492.910          47.000
        47.200    21851492.738
 -10694474.955 6  -9131459.242 7  23834860.492    23834860.273          41.600
        42.000    23834860.043
 -21899885.320 8 -16182080.22746  21645796.633    21645787.445          51.500
        39.100
 -23171497.601 7 -11672120.56646  21491739.930    21491732.734          45.700
        36.500
 16  1  1  0  5 30.0000000  0 11G32G06G07G03G31G11G01G26G09G23G16
 -23926257.714 7 -13826221.80246  21542955.563    21542950.184          47.400
        38.600
  -5446882.668 6  -4228028.638 6  24949266.195    24949267.441          38.100
        37.600    24949267.445
  -4601780.289 6  -4188193.076 5  24899812.969    24899814.156          36.100
        34.500    24899813.633
 -29761563.945 8 -22997185.401 8  20221006.727    20221001.879          52.500
        52.700    20221002.172
  -7114040.592 6  -5502744.142 6  23999498.688    23999492.957          39.900
        39.200    23999493.371
 -35796907.643 5                  25970751.031                          33.100

  -8876872.602 6  -6880524.915 7  23877165.391    23877166.227          41.100
        42.300    23877165.938
 -21288859.231 7 -16604580.718 7  21852782.727    21852778.992          45.800
        47.500    21852778.879
 -10767906.905 6  -9188678.677 6  23820886.703    23820886.250          41.600
        41.800    23820886.078
 -21947491.542 8 -16219175.91946  21636737.227    21636727.980          51.700
        39.800
 -23228866.456 7 -11716823.48346  21480822.641    21480815.621          46.800
        36.500
 16  1  1  0  6  0.0000000  0 11G32G06G07G03G31G11G01G26G09G23G16
 -23857365.247 7 -13772539.38846  21556065.250    21556059.402          47.300
        38.500
  -5487264.083 6  -4259494.653 6  24941581.219    24941583.402          37.500
        37.300    24941583.113
  -4690730.641 6  -4257504.772 5  24882886.070    24882887.785          37.800
        35.000    24882887.320
 -29755896.350 8 -22992769.089 8  20222085.305    20222080.457          52.000
        52.700    20222080.750
  -7015768.511 6  -5426168.545 6  24018198.141    24018193.469          39.600
        39.700    24018194.176
 -35727297.737 5                  25983996.688                          35.400

  -8787382.958 6  -6810792.923 7  23894194.977    23894195.578          39.700
        42.100    23894195.406
 -21281514.377 7 -16598857.414 7  21854180.047    21854176.957          46.800
        47.300    21854176.785
 -10841330.280 6  -9245891.447 6  23806914.383    23806913.578          41.600
        41.500    23806913.758
 -21995000.443 8 -16256195.77846  21627696.477    21627687.465          50.300
        39.600
 -23285714.319 7 -11761120.42846  21470004.695    21469998.027          46.700
        36.400
 16  1  1  0  6 30.0000000  0 11G32G06G07G03G31G11G01G26G09G23G16
 -23788111.495 7 -13718575.44746  21569244.391    21569238.484          46.800
        38.800
  -5527161.628 6  -4290583.626 6  24933988.516    24933990.816          37.100
        38.900    24933991.230
  -4779533.750 6  -4326701.729 5  24865986.984    24865988.230          37.200
        35.200    24865988.117
 -29749676.146 8 -22987922.175 8  20223268.742    20223263.719          51.700
        53.200    20223263.895
  -6917495.028 6  -5349591.863 6  24036899.867    24036894.137          38.100
        38.400    24036894.785
 -35657932.935 5                  25997195.688                          34.400

  -8697848.695 6  -6741026.174 7  23911233.109    23911234.355          40.500
        42.000    23911233.832
 -21273581.949 7 -16592676.264 7  21855688.977    21855686.063          46.200
        47.500    21855686.066
 -10914742.713 6  -9303095.697 7  23792944.563    23792943.348          41.800
        42.100    23792943.996
 -22042409.152 8 -16293137.56646  21618674.930    21618665.977          50.300
        38.900
 -23342036.413 7 -11805007.67746  21459286.750    21459279.906          46.300
        36.500
 16  1  1  0  7  0.0000000  0 11G32G06G07G03G31G11G01G26G09G23G16
 -23718501.468 7 -13664333.88846  21582490.406    21582484.559          47.000
        38.600
  -5566578.371 6  -4321297.954 6  24926489.219    24926490.406          37.900
        38.000    24926490.586
  -4868192.993 6  -4395786.580 5  24849116.156    24849117.051          37.900
        35.000    24849116.820
 -29742906.723 8 -22982647.291 8  20224556.883    20224552.152          50.300
        52.900    20224552.445
  -6819226.192 6  -5273018.769 6  24055599.750    24055594.488          38.700
        39.000    24055594.844
 -35588819.236 5                  26010348.383                          34.000

  -8608276.704 6  -6671230.016 6  23928277.836    23928279.141          40.300
        41.700    23928279.203
 -21265065.907 7 -16586040.352 7  21857309.828    21857306.797          44.700
        47.400    21857306.625
 -10988147.862 7  -9360294.293 7  23778975.734    23778974.754          42.600
        42.000    23778974.699
 -22089720.816 8 -16330003.73546  21609671.570    21609662.734          50.600
        39.200
 -23397834.690 7 -11848486.76246  21448668.398    21448661.848          46.300
        36.500
 16  1  1  0  7 30.0000000  0 11G32G06G07G03G31G11G01G26G09G23G16
 -23648534.684 8 -13609814.31046  21595805.039    21595799.016          48.300
        39.000
  -5605511.588 6  -4351635.505 6  24919080.180    24919081.836          37.000
        38.900    24919082.074
  -4956705.499 6  -4464757.083 5  24832271.766    24832272.953          37.600
        35.100    24832272.664
 -29735585.953 8 -22976942.788 8  20225949.992    20225945.379          52.000
        52.900    20225945.730
  -6720961.634 6  -5196449.045 6  24074299.531    24074293.801          40.200
        39.600    24074294.449
 -35519956.997 5                  26023453.109                          35.000

  -8518668.244 6  -6601405.460 6  23945329.266    23945331.215          39.700
        41.700    23945330.867
 -21255964.636 7 -16578948.428 7  21859042.195    21859038.695          47.700
        47.600    21859038.465
 -11061543.937 7  -9417485.822 7  23765009.000    23765007.961          42.100
        42.000    23765008.551
 -22136933.270 8 -16366792.60846  21600687.359    21600678.523          50.700
        39.600
 -23453104.511 7 -11891554.06246  21438151.180    21438144.453          47.300
        37.200
 16  1  1  0  8  0.0000000  0 11G32G06G07G03G31G11G01G26G09G23G16
 -23578212.122 7 -13555017.52246  21609186.586    21609180.914          47.300
        38.600
  -5643960.206 6  -4381595.452 6  24911763.102    24911765.344          37.600
        38.900    24911766.051
  -5045069.612 6  -4533611.954 6  24815456.727    24815457.621          38.400
        36.100    24815457.918
 -29727713.097 8 -22970808.087 8  20227448.125    20227443.277          51.500
        52.900    20227443.629
  -6622702.589 6  -5119883.623 6  24092996.828    24092991.980          38.400
        38.800    24092992.332
 -35451347.337 5                  26036508.688                          35.200

  -8429026.078 6  -6531554.638 6  23962388.055    23962390.004          39.400
        41.000    23962389.715
 -21246277.915 7 -16571400.299 7  21860885.313    21860881.871          46.500
        47.800    21860881.934
 -11134930.361 6  -9474669.824 7  23751043.664    23751043.035          41.600
        42.100    23751043.156
 -22184045.506 8 -16403503.37946  21591721.875    21591713.215          50.100
        38.900
 -23507843.022 7 -11934207.35746  21427734.609    21427727.941          47.000
        36.900
 16  1  1  0  8 30.0000000  0 11G32G06G07G03G31G11G01G26G09G23G16
 -23507535.315 7 -13499944.72946  21622636.102    21622630.547          47.600
        38.300
  -5681923.412 6  -4411177.159 6  24904539.055    24904542.059          37.100
        39.400    24904541.945
  -5133285.230 6  -4602351.116 5  24798669.711    24798670.488          37.400
        35.800    24798670.434
 -29719287.840 8 -22964242.947 8  20229051.438    20229046.355          51.400
        53.000    20229046.590
  -6524450.853 6  -5043323.905 6  24111693.648    24111688.801          38.900
        39.600    24111689.035
 -35382991.994 6                  26049518.313                          36.900

  -8339353.191 6  -6461679.885 6  23979452.570    23979453.758          39.400
        41.100    23979453.586
 -21236005.915 7 -16563396.115 7  21862839.805    21862836.539          47.300
        47.900    21862836.426
 -11208307.052 7  -9531846.242 6  23737080.305    23737079.734          42.300
        41.600    23737079.680
 -22231056.857 8 -16440135.54746  21582776.125    21582766.879          50.300
        39.200
 -23562047.466 7 -11976444.49046  21417419.742    21417413.133          46.600
        37.300
 16  1  1  0  9  0.0000000  0 11G32G06G07G03G31G11G01G26G09G23G16
 -23436505.216 7 -13444596.63546  21636152.602    21636147.105          47.000
        38.400
  -5719400.318 6  -4440379.958 6  24897406.891    24897409.719          36.900
        39.000    24897410.016
  -5221351.099 6  -4670973.591 6  24781911.156    24781911.934          38.000
        36.100    24781911.996
 -29710309.757 8 -22957247.027 8  20230759.797    20230755.184          51.600
        53.000    20230755.477
  -6426208.480 6  -4966771.450 6  24130388.648    24130382.977          38.900
        38.600    24130383.566
 -35314893.126 5                  26062476.172                          35.000

  -8249652.554 6  -6391783.507 6  23996522.172    23996523.242          39.400
        40.400    23996523.305
 -21225148.736 7 -16554935.936 7  21864905.820    21864902.555          46.300
        47.500    21864902.441
 -11281673.824 7  -9589014.946 6  23723119.125    23723118.438          42.500
        41.600    23723117.914
 -22277966.883 8 -16476688.75946  21573849.492    21573840.480          49.900
        39.000
 -23615715.801 7 -12018263.86246  21407206.813    21407200.027          47.500
        36.600
 16  1  1  0  9 30.0000000  0 11G32G06G07G03G31G11G01G26G09G23G16
 -23365122.935 7 -13388974.12646  21649736.242    21649730.453          47.600
        38.100
  -5756389.981 6  -4469203.036 6  24890367.742    24890370.512          36.200
        39.400    24890370.984
  -5309266.222 6  -4739478.587 6  24765180.484    24765181.789          38.100
        36.800    24765181.910
 -29700778.328 8 -22949819.926 8  20232573.641    20232569.086          51.400
        53.200    20232569.559
  -6327976.878 6  -4890227.398 6  24149082.039    24149076.367          38.300
        39.900    24149076.781
 -35247052.462 5                  26075385.641                          35.300

  -8159926.992 6  -6321867.708 6  24013596.328    24013598.160          39.400
        39.500    24013597.461
 -21213706.396 7 -16546019.798 7  21867083.094    21867079.945          46.700
        47.500    21867079.598
 -11355030.258 6  -9646175.580 7  23709159.844    23709158.805          40.900
        42.200    23709158.457
 -22324774.520 8 -16513162.18646  21564942.117    21564933.105          48.900
        39.400
 -23668845.498 7 -12059663.52646  21397096.602    21397089.699          47.600
        36.700
 16  1  1  0 10  0.0000000  0 11G32G06G07G03G31G11G01G26G09G23G16
 -23293389.744 8 -13333078.15846  21663386.508    21663380.953          48.100
        38.300
  -5792891.554 6  -4497645.781 6  24883422.078    24883424.379          36.600
        38.600    24883424.793
  -5397029.525 6  -4807865.284 6  24748479.641    24748480.945          36.900
        37.300    24748480.773
 -29690693.103 8 -22941961.301 8  20234492.828    20234488.039          51.200
        52.500    20234488.332
  -6229757.767 6  -4813693.085 6  24167772.422    24167766.633          40.500
        40.200    24167767.223
 -35179471.753 6                  26088248.750                          36.100

  -8070179.331 6  -6251934.689 6  24030675.398    24030676.352          39.200
        39.600    24030676.473
 -21201678.909 7 -16536647.698 7  21869372.063    21869368.914          46.200
        47.500    21869368.801
 -11428376.046 6  -9703327.931 7  23695202.273    23695201.586          41.800
        42.500    23695201.238
 -22371479.227 8 -16549555.40946  21556054.641    21556045.277          49.400
        39.300
 -23721433.945 7 -12100641.43846  21387089.047    21387082.613          47.800
        36.700
 16  1  1  0 10 30.0000000  0 11G32G06G07G03G31G11G01G26G09G23G16
 -23221307.543 7 -13276910.20946  21677103.273    21677097.660          47.600
        38.600
  -5828904.734 6  -4525707.970 6  24876569.953    24876571.199          37.400
        38.700    24876571.203
  -5484640.711 6  -4876133.436 6  24731808.445    24731807.992          36.200
        36.800    24731808.348
 -29680054.364 8 -22933671.362 8  20236517.320    20236512.648          50.700
        52.500    20236513.000
  -6131553.149 6  -4737170.033 6  24186460.109    24186454.145          39.800
        39.200    24186454.441
 -35112153.372 5                  26101059.086                          35.200

  -7980413.075 6  -6181987.159 6  24047757.602    24047758.613          39.900
        39.200    24047758.383
 -21189067.130 7 -16526820.297 7  21871772.445    21871768.828          47.600
        47.600    21871768.891
 -11501711.593 6  -9760472.299 7  23681246.078    23681245.566          40.400
        42.300    23681245.922
 -22418080.825 8 -16585868.27846  21547186.492    21547177.656          49.600
        39.300
 -23773478.895 7 -12141195.84346  21377185.266    21377178.422          46.600
        37.300
 16  1  1  0 11  0.0000000  0 11G32G06G07G03G31G11G01G26G09G23G16
 -23148876.968 7 -13220470.79646  21690886.430    21690881.289          47.700
        38.200
  -5864428.298 6  -4553388.635 6  24869809.477    24869811.543          38.100
        38.800    24869811.137
  -5572098.517 6  -4944282.074 6  24715164.898    24715165.383          37.500
        37.100    24715165.211
 -29668861.201 8 -22924949.408 8  20238647.211    20238642.832          51.800
        52.700    20238643.188
  -6033364.175 6  -4660659.200 6  24205145.234    24205139.211          41.500
        40.700    24205139.918
 -35045098.673 6                  26113820.250                          36.000

  -7890630.713 6  -6112027.071 6  24064842.438    24064844.035          40.000
        39.500    24064844.039
 -21175870.676 8 -16516537.300 8  21874282.648    21874279.793          48.200
        48.000    21874279.738
 -11575036.008 6  -9817607.998 7  23667293.727    23667292.395          41.400
        43.100    23667292.340
 -22464578.147 8 -16622099.89346  21538338.219    21538329.090          50.200
        39.700
 -23824977.455 7 -12181324.49646  21367385.508    21367378.664          47.100
        36.500
 16  1  1  0 11 30.0000000  0 11G32G06G07G03G31G11G01G26G09G23G16
 -23076099.313 7 -13163760.94646  21704735.813    21704729.965          47.000
        38.000
  -5899461.423 6  -4580687.139 6  24863143.313    24863144.441          37.800
        38.700    24863144.914
  -5659402.318 6  -5012310.716 6  24698551.547    24698552.441          37.500
        38.100    24698552.621
 -29657113.241 8 -22915795.146 8  20240883.000    20240878.504          50.400
        52.400    20240878.738
  -5935192.437 6  -4584161.813 6  24223826.469    24223820.621          39.900
        39.500    24223821.152
 -34978308.938 6                  26126530.047                          36.100

  -7800834.929 6  -6042056.516 6  24081929.922    24081931.578          40.600
        39.800    24081931.348
 -21162089.730 7 -16505798.844 7  21876905.656    21876901.980          47.200
        47.100    21876901.867
 -11648349.028 6  -9874734.820 7  23653342.273    23653341.000          40.500
        42.700    23653341.648
 -22510970.365 8 -16658249.61346  21529510.031    21529501.488          49.400
        39.300
 -23875927.351 7 -12221025.62046  21357690.242    21357683.105          46.700
        37.200
 16  1  1  0 12  0.0000000  0 11G32G06G07G03G31G11G01G26G09G23G16
 -23002976.232 7 -13106781.94746  21718650.508    21718644.543          47.900
        37.600
  -5934003.637 6  -4607603.095 6  24856569.477    24856571.367          37.900
        38.300    24856571.137
  -5746550.848 6  -5080218.354 6  24681966.734    24681967.629          37.400
        37.900    24681967.398
 -29644810.562 8 -22906208.637 8  20243223.953    20243219.105          49.200
        52.900    20243219.574
  -5837040.144 6  -4507679.465 6  24242503.891    24242498.395          41.000
        39.600    24242498.574
 -34911786.416 5                  26139188.578                          35.000

  -7711029.050 6  -5972078.088 6  24099019.617    24099021.391          39.800
        39.000    24099021.277
 -21147724.862 7 -16494605.393 8  21879638.906    21879635.699          44.100
        48.000    21879635.703
 -11721650.719 6  -9931852.790 7  23639393.000    23639392.371          39.900
        42.800    23639391.906
 -22557256.956 8 -16694317.01146  21520701.891    21520692.938          50.600
        39.300
 -23926326.497 8 -12260297.59146  21348099.445    21348092.543          48.100
        37.600
 16  1  1  0 12 30.0000000  0 11G32G06G07G03G31G11G01G26G09G23G16
 -22929508.571 7 -13049534.44346  21732631.109    21732625.789          47.700
        38.000
  -5968053.890 6  -4634135.728 6  24850089.750    24850091.113          36.000
        37.900    24850092.055
  -5833543.017 6  -5148004.175 6  24665412.977    24665413.813          37.800
        38.000    24665413.699
 -29631952.472 8 -22896189.348 8  20245670.719    20245666.223          52.100
        52.800    20245666.516
  -5738908.231 6  -4431213.091 6  24261177.922    24261173.016          41.300
        40.200    24261173.191
 -34845532.574 5                  26151795.867                          35.700

  -7621215.575 6  -5902093.741 6  24116110.430    24116112.262          39.000
        38.900    24116112.324
 -21132775.927 7 -16482956.824 7  21882484.008    21882480.039          46.500
        47.600    21882479.926
 -11794940.341 6  -9988961.384 7  23625446.148    23625444.992          38.100
        42.800    23625444.938
 -22603436.870 8 -16730301.29546  21511914.375    21511905.070          50.800
        39.600
 -23976172.037 7 -12299138.18446  21338614.039    21338606.902          47.700
        36.900
 16  1  1  0 13  0.0000000  0 11G32G06G07G03G31G11G01G26G09G23G16
 -22855697.534 7 -12992019.38046  21746676.703    21746671.090          47.400
        37.600
  -6001611.329 6  -4660284.364 6  24843704.344    24843705.707          37.400
        39.200    24843706.355
  -5920378.168 6  -5215667.635 6  24648888.703    24648889.012          38.600
        38.600    24648889.191
 -29618538.620 8 -22885736.988 8  20248223.516    20248218.785          50.400
        53.300    20248219.195
  -5640798.292 6  -4354763.841 6  24279848.219    24279841.785          41.100
        39.700    24279841.848
 -34779549.256 5                  26164352.414                          33.500

  -7531397.238 6  -5832105.615 6  24133202.836    24133204.141          39.200
        39.200    24133204.145
 -21117243.170 7 -16470853.332 7  21885439.469    21885435.441          44.100
        47.900    21885435.680
 -11868217.519 6 -10046060.277 7  23611502.414    23611500.672          40.100
        42.400    23611500.500
 -22649509.309 8 -16766201.82446  21503146.961    21503138.242          48.700
        38.900
 -24025461.627 7 -12337545.56946  21329234.516    21329227.203          46.200
        37.300
 16  1  1  0 13 30.0000000  0 11G32G06G07G03G31G11G01G26G09G23G16
 -22781545.453 7 -12934238.56746  21760787.305    21760781.750          47.600
        37.700
  -6034676.182 6  -4686049.159 6  24837412.523    24837413.359          36.100
        38.900    24837413.773
  -6007056.177 6  -5283208.672 6  24632393.844    24632394.855          39.000
        38.900    24632395.035
 -29604569.701 8 -22874852.111 8  20250881.664    20250877.227          52.100
        52.300    20250877.582
  -5542712.894 6  -4278333.633 6  24298512.359    24298506.805          41.300
        38.900    24298507.043
 -34713838.651 5                  26176858.953                          34.300

  -7441577.896 6  -5762116.707 6  24150294.484    24150296.609          39.400
        39.200    24150296.730
 -21101127.809 7 -16458295.845 7  21888506.305    21888502.570          46.700
        47.400    21888502.633
 -11941482.911 6 -10103149.977 7  23597559.375    23597558.336          38.800
        42.500    23597558.164
 -22695474.508 8 -16802018.79046  21494400.164    21494390.742          51.600
        39.000
 -24074193.689 7 -12375518.51246  21319960.945    21319953.984          47.300
        37.500
 16  1  1  0 14  0.0000000  0 11G32G06G07G03G31G11G01G26G09G23G16
 -22707052.424 7 -12876192.08746  21774962.852    21774957.414          47.200
        37.300
  -6067246.723 6  -4711428.769 6  24831215.172    24831216.125          36.500
        38.300    24831216.480
  -6093574.956 6  -5350625.632 6  24615930.086    24615930.805          40.300
        37.600    24615930.457
 -29590044.377 8 -22863533.675 8  20253645.469    20253640.973          50.800
        53.000    20253641.563
  -5444652.352 6  -4201922.843 6  24317173.375    24317167.352          41.500
        39.500    24317167.531
 -36223821.323 5                  26189311.422                          33.600

  -7351759.285 6  -5692128.374 6  24167386.820    24167388.652          39.700
        39.200    24167389.008
 -21084429.058 7 -16445283.778 7  21891683.250    21891679.926          45.200
        47.600    21891679.930
 -12014735.044 6 -10160229.327 7  23583620.234    23583618.961          39.200
        42.500    23583619.082
 -22741330.423 7 -16837750.59646  21485673.992    21485664.453          47.600
        39.400
 -24122364.432 7 -12413054.07846  21310794.273    21310787.020          45.900
        37.500
 16  1  1  0 14 30.0000000  0 11G32G06G07G03G31G11G01G26G09G23G16
 -22632220.555 7 -12817881.57446  21789203.141    21789197.234          46.100
        37.500
  -6099322.835 6  -4736423.104 6  24825111.164    24825112.059          36.900
        38.400    24825112.414
  -6179934.286 6  -5417918.352 6  24599495.844    24599496.914          40.300
        37.800    24599496.859
 -29574963.152 8 -22851782.065 8  20256515.781    20256510.992          49.300
        53.000    20256511.520
  -5346618.836 6  -4125533.091 6  24335828.055    24335822.617          41.000
        38.800    24335822.504
 -36158659.747 5                  26201711.055                          30.100

  -7261944.953 6  -5622143.367 6  24184478.367    24184479.965          39.200
        39.200    24184480.203
 -21067147.952 7 -16431817.924 7  21894972.211    21894968.652          43.900
        47.800    21894968.832
 -12087974.236 6 -10217298.604 7  23569683.055    23569681.898          39.600
        42.400    23569681.844
 -22787076.848 8 -16873397.09146  21476968.477    21476959.348          49.500
        40.000
 -24169973.114 7 -12450151.66746  21301734.500    21301727.070          46.200
        38.000
 16  1  1  0 15  0.0000000  0 11G32G06G07G03G31G11G01G26G09G23G16
 -22557045.251 7 -12759303.43546  21803508.430    21803502.934          46.200
        38.000
  -6130898.127 6  -4761027.177 6  24819101.297    24819102.953          36.400
        38.000    24819103.074
  -6266127.621 6  -5485081.731 6  24583094.188    24583094.086          40.700
        37.800    24583093.855
 -29559319.922 8 -22839592.521 8  20259492.469    20259487.445          50.300
        52.500    20259487.973
  -5248608.170 7  -4049161.145 6  24354478.844    24354473.820          42.000
        39.000    24354474.465
 -36093769.67214                  26214059.656                          28.300

  -7172131.776 6  -5552159.249 6  24201569.164    24201571.230          38.900
        39.500    24201571.293
 -21049278.991 7 -16417893.996 7  21898372.328    21898369.121          46.700
        47.800    21898368.715
 -12161194.355 6 -10274353.016 7  23555749.336    23555748.297          40.500
        42.300    23555748.125
 -22832707.194 8 -16908953.12146  21468285.234    21468275.930          48.800
        40.100
 -24217010.916 7 -12486804.41546  21292783.281    21292776.203          46.700
        37.600
 16  1  1  0 15 30.0000000  0 11G32G06G07G03G31G11G01G26G09G23G16
 -22481545.140 7 -12700472.19346  21817875.586    21817870.383          46.900
        37.700
  -6161989.309 5  -4785254.006 6  24813185.672    24813186.801          35.800
        39.700    24813187.391
  -6352171.199 6  -5552128.408 6  24566720.719    24566720.266          41.300
        37.300    24566720.035
 -29543131.997 8 -22826978.550 8  20262572.539    20262568.043          51.200
        52.500    20262568.457
  -5150639.265 6  -3972821.728 6  24373122.117    24373115.742          41.100
        37.500    24373116.332
 -36029169.940 4                  26226351.703                          29.900

  -7082340.044 6  -5482191.839 6  24218655.961    24218658.203          39.700
        39.900    24218657.738
 -21030839.991 7 -16403525.878 7  21901880.766    21901877.559          47.300
        47.600    21901877.855
 -12234412.403 6 -10331405.816 7  23541816.172    23541814.781          39.600
        42.900    23541814.961
 -22878238.184 8 -16944431.73846  21459620.984    21459611.914          50.300
        39.700
 -24263492.754 7 -12523023.93246  21283937.820    21283931.152          47.400
        37.100
 16  1  1  0 16  0.0000000  0 11G32G06G07G03G31G11G01G26G09G23G16
 -22405698.954 7 -12641371.28246  21832308.578    21832302.789          45.700
        37.200
  -6192572.910 6  -4809085.330 6  24807365.063    24807367.188          36.100
        39.200    24807367.953
  -6438041.554 6  -5619040.091 6  24550379.508    24550379.172          41.100
        36.800    24550379.176
 -29526376.402 8 -22813922.235 8  20265761.102    20265756.430          49.800
        52.400    20265756.781
  -5052690.695 6  -3896498.168 6  24391760.977    24391755.656          41.100
        39.400    24391756.012
 -35964839.972 4                  26238595.211                          28.900

  -6992549.815 6  -5412225.606 6  24235742.797    24235744.980          38.500
        40.300    24235744.984
 -21011808.594 7 -16388696.155 7  21905502.789    21905498.879          47.000
        47.400    21905498.648
 -12307605.256 6 -10388438.985 7  23527888.516    23527886.598          40.000
        42.400    23527886.602
 -22923646.092 8 -16979814.44246  21450980.117    21450971.281          48.700
        39.200
 -24309394.506 7 -12558791.43546  21275203.344    21275196.383          46.200
        36.800
 16  1  1  0 16 30.0000000  0 11G32G06G07G03G31G11G01G26G09G23G16
 -22329524.792 7 -12582014.81346  21846803.961    21846798.641          46.600
        36.800
  -6222665.462 6  -4832534.016 6  24801638.297    24801640.480          37.000
        38.800    24801641.012
  -6523754.952 6  -5685829.463 6  24534068.438    24534067.984          40.900
        36.900    24534067.520
 -29509069.909 8 -22800436.644 8  20269054.523    20269049.852          50.600
        52.700    20269050.262
  -4954781.020 6  -3820204.953 6  24410392.516    24410386.902          40.200
        37.800    24410386.848
 -35900797.715 4                  26250784.031                          29.600

  -6902780.727 6  -5342275.840 6  24252824.836    24252828.543          38.900
        40.500    24252828.254
 -20992202.104 8 -16373418.312 7  21909233.602    21909229.809          48.200
        47.300    21909229.520
 -12380789.421 6 -10445465.397 7  23513961.563    23513960.113          39.600
        43.000    23513960.234
 -22968947.007 8 -17015113.78546  21442359.516    21442350.387          49.400
        39.900
 -24354729.991 7 -12594117.69946  21266575.984    21266568.965          46.900
        36.900
 16  1  1  0 17  0.0000000  0 11G32G06G07G03G31G11G01G26G09G23G16
 -22253023.183 7 -12522403.18746  21861362.141    21861356.176          46.100
        37.000
  -6252265.261 6  -4855598.731 6  24796005.805    24796007.695          36.900
        39.900    24796008.520
  -6609309.398 6  -5752494.970 6  24517787.586    24517787.484          41.000
        37.000    24517787.723
 -29491211.516 8 -22786521.001 8  20272452.813    20272448.375          50.500
        52.300    20272448.848
  -4856910.724 7  -3743942.372 6  24429017.078    24429010.762          42.000
        38.700    24429011.293
 -35837044.261 5                  26262916.148                          34.300

  -6813034.753 6  -5272344.098 6  24269903.773    24269906.191          38.500
        40.000    24269906.078
 -20972020.097 7 -16357692.015 7  21913074.273    21913070.773          47.100
        47.600    21913070.543
 -12453963.641 6 -10502484.065 7  23500037.047    23500035.246          39.400
        43.400    23500035.719
 -23014139.181 8 -17050328.38746  21433759.773    21433750.586          49.200
        40.100
 -24399496.341 8 -12629000.47346  21258057.273    21258050.430          48.000
        37.400
 16  1  1  0 17 30.0000000  0 11G32G06G07G03G31G11G01G26G09G23G16
 -22176186.556 7 -12462530.50946  21875983.438    21875977.590          45.700
        36.900
  -6281362.969 6  -4878272.204 6  24790469.523    24790470.711          36.600
        39.400    24790471.301
  -6694694.901 6  -5819028.791 6  24501539.617    24501539.340          41.000
        37.200    24501539.168
 -29472792.146 8 -22772168.240 8  20275958.047    20275953.492          49.100
        52.700    20275953.551
  -4759071.894 6  -3667704.309 6  24447634.359    24447629.395          40.500
        37.900    24447629.980
 -35773572.797 4                  26274993.766                          28.900

  -6723305.642 6  -5202425.504 6  24286978.563    24286981.391          39.400
        40.500    24286980.809
 -20951254.085 7 -16341510.651 7  21917025.719    21917022.219          44.100
        47.400    21917022.223
 -12527118.487 6 -10559487.653 7  23486116.102    23486114.477          40.200
        42.900    23486114.773
 -23059212.873 8 -17085450.66446  21425182.367    21425173.004          50.600
        40.000
 -24443682.725 7 -12663431.32946  21249648.695    21249641.559          47.800
        37.700
 16  1  1  0 18  0.0000000  0 11G32G06G07G03G31G11G01G26G09G23G16
 -22099016.327 7 -12402397.88446  21890668.641    21890663.027          45.600
        37.000
  -6309957.881 6  -4900553.898 6  24785026.078    24785029.258          36.000
        39.200    24785029.438
  -6779910.672 6  -5885430.354 6  24485322.766    24485322.195          40.900
        37.100    24485322.492
 -29453811.795 8 -22757378.346 8  20279569.781    20279564.934          51.000
        52.600    20279565.227
  -4661266.274 6  -3591492.134 6  24466246.867    24466241.078          40.800
        38.500    24466241.609
 -35710382.784 5                  26287018.367                          30.500

  -6633596.234 6  -5132522.263 6  24304050.359    24304053.188          38.500
        40.800    24304052.898
 -20929904.651 8 -16324874.686 7  21921088.516    21921084.781          48.000
        47.200    21921084.668
 -12600253.680 6 -10616475.919 7  23472198.828    23472196.969          39.800
        44.000    23472197.031
 -23104167.145 8 -17120479.89246  21416628.023    21416618.367          50.800
        40.600
 -24487286.590 8 -12697408.26646  21241351.227    21241344.148          48.400
        37.800
 16  1  1  0 18 30.0000000  0 11G32G06G07G03G31G11G01G26G09G23G16
 -22021525.715 7 -12342015.58346  21905414.422    21905409.281          46.100
        36.800
  -6338061.597 6  -4922452.822 6  24779678.500    24779681.387          37.100
        40.000    24779681.977
  -6864967.949 6  -5951708.384 6  24469136.375    24469136.215          39.800
        36.200    24469136.512
 -29434282.350 8 -22742160.592 8  20283286.055    20283280.914          50.300
        52.600    20283281.383
  -4563507.703 6  -3515316.669 6  24484849.680    24484843.188          39.800
        36.500    24484843.543
 -35647489.424 4                  26298987.258                          28.900

  -6543921.243 6  -5062645.821 6  24321114.367    24321117.488          38.700
        40.900    24321117.258
 -20907984.202 8 -16307793.786 7  21925259.633    21925256.074          48.800
        47.400    21925256.020
 -12673380.613 6 -10673457.762 7  23458283.250    23458281.098          39.900
        43.400    23458281.043
 -23149013.120 8 -17155424.73646  21408093.734    21408084.313          48.000
        40.100
 -24530317.951 7 -12730939.10146  21233163.055    21233155.684          45.800
        37.900
 16  1  1  0 19  0.0000000  0 11G32G06G07G03G31G11G01G26G09G23G16
 -21943705.113 7 -12281376.16846  21920222.969    21920218.121          45.800
        36.600
  -6365662.425 6  -4943959.891 6  24774427.250    24774429.492          36.900
        39.400    24774429.730
  -6949854.756 6  -6017853.565 6  24452982.625    24452982.230          39.900
        37.100    24452982.469
 -29414192.647 8 -22726506.256 8  20287108.883    20287104.152          50.000
        52.800    20287104.504
  -4465786.019 6  -3439169.898 6  24503445.805    24503438.785          41.100
        37.700    24503439.727
 -35584882.800 5                  26310902.680                          31.600

  -6454272.252 6  -4992789.639 6  24338174.859    24338177.336          37.900
        41.000    24338176.930
 -20885482.201 7 -16290259.726 7  21929541.516    21929538.074          47.900
        47.900    21929537.785
 -12746487.774 6 -10730424.193 7  23444370.609    23444369.102          40.200
        43.200    23444368.930
 -23193738.627 8 -17190275.70846  21399582.781    21399573.594          51.500
        40.300
 -24572763.427 7 -12764013.40146  21225085.484    21225078.172          47.200
        37.500
 16  1  1  0 19 30.0000000  0 11G32G06G07G03G31G11G01G26G09G23G16
 -21865557.780 7 -12220482.17346  21935094.086    21935088.648          46.700
        36.600
  -6392761.768 6  -4965076.204 6  24769270.453    24769271.934          37.300
        38.700    24769271.703
  -7034572.285 6  -6083866.842 6  24436861.875    24436861.188          40.300
        37.100    24436861.191
 -29393544.623 8 -22710416.867 8  20291038.297    20291033.391          51.200
        52.100    20291033.684
  -4368104.795 6  -3363054.773 6  24522033.344    24522027.672          41.200
        37.700    24522027.910
 -35522566.353 5                  26322760.719                          32.000

  -6364653.963 6  -4922957.388 6  24355229.234    24355231.008          38.400
        40.400    24355230.777
 -20862401.102 8 -16272274.425 7  21933933.414    21933930.266          48.000
        47.800    21933930.152
 -12819576.665 6 -10787376.360 7  23430462.461    23430460.602          41.000
        43.800    23430460.898
 -23238344.578 8 -17225033.53346  21391094.672    21391085.074          51.800
        39.900
 -24614622.471 8 -12796630.74246  21217119.805    21217112.609          48.100
        37.500
 16  1  1  0 20  0.0000000  0 11G32G06G07G03G31G11G01G26G09G23G16
 -21787089.788 7 -12159338.31446  21950026.133    21950020.695          46.300
        36.400
  -6419363.981 6  -4985805.111 6  24764207.625    24764209.398          36.400
        39.400    24764209.813
  -7119124.303 6  -6149751.126 6  24420771.703    24420770.664          41.100
        36.800    24420770.434
 -29372343.000 8 -22693896.108 8  20295072.719    20295067.754          51.000
        52.700    20295068.105
  -4270469.631 6  -3286975.447 5  24540613.055    24540606.680          40.700
        35.900    24540607.094
 -35460546.227 5                  26334563.844                          31.300

  -6275073.851 6  -4853154.879 6  24372275.594    24372277.719          38.100
        40.500    24372277.605
 -20838746.252 7 -16253842.052 7  21938435.164    21938431.371          47.800
        47.600    21938431.316
 -12892651.541 6 -10844317.604 7  23416556.508    23416554.473          41.000
        43.700    23416554.418
 -23282835.125 8 -17259701.42446  21382628.195    21382618.891          49.500
        40.500
 -24655898.419 7 -12828793.70546  21209265.234    21209258.098          46.000
        38.300
 16  1  1  0 20 30.0000000  0 10G32G06G07G03G31G01G26G09G23G16
 -21708298.991 7 -12097942.90746  21965019.414    21965013.918          46.000
        36.600
  -6445464.924 6  -5006143.411 6  24759241.750    24759242.996          37.200
        38.800    24759242.824
  -7203506.585 7  -6215503.154 6  24404713.750    24404713.297          42.000
        37.400    24404713.184
 -29350584.193 8 -22676941.164 8  20299213.352    20299208.680          51.400
        52.700    20299208.973
  -4172878.820 6  -3210930.709 6  24559183.430    24559177.875          40.800
        36.900    24559178.172
  -6185530.983 6  -4783381.395 6  24389314.539    24389317.016          37.900
        40.100    24389316.961
 -20814514.620 7 -16234960.227 7  21943046.273    21943042.363          47.000
        47.300    21943042.070
 -12965708.329 7 -10901244.736 7  23402654.414    23402651.969          42.300
        43.600    23402651.738
 -23327205.541 8 -17294275.71146  21374184.500    21374175.547          51.500
        40.100
 -24696584.973 7 -12860497.40946  21201522.922    21201515.434          47.300
        38.600
 16  1  1  0 21  0.0000000  0 10G32G06G07G03G31G01G26G09G23G16
 -21629188.328 7 -12036298.23445  21980073.602    21980068.461          46.800
        35.800
  -6471065.818 6  -5026092.094 6  24754369.273    24754371.105          36.700
        38.600    24754371.402
  -7287719.962 6  -6281123.565 6  24388687.484    24388687.207          41.100
        37.400    24388687.387
 -29328269.880 8 -22659553.365 8  20303459.469    20303454.738          51.900
        52.600    20303455.090
  -4075334.971 6  -3134922.572 6  24577745.469    24577740.031          40.900
        37.700    24577740.211
  -6096029.814 6  -4713640.421 6  24406345.906    24406349.320          37.500
        39.800    24406348.973
 -20789708.455 7 -16215630.720 7  21947766.211    21947763.121          46.700
        47.400    21947763.008
 -13038748.200 7 -10958158.696 7  23388755.391    23388752.828          42.600
        43.600    23388752.949
 -23371456.661 8 -17328757.04046  21365764.070    21365754.590          52.500
        39.900
 -24736681.794 8 -12891741.57446  21193892.625    21193884.961          48.600
        38.200
 16  1  1  0 21 30.0000000  0 10G32G06G07G03G31G01G26G09G23G16
 -21549758.382 7 -11974404.77446  21995189.227    21995183.086          46.500
        36.300
  -6496165.207 6  -5045649.967 6  24749592.641    24749594.355          36.800
        39.200    24749594.594
  -7371762.166 6  -6346610.586 6  24372694.672    24372694.160          40.800
        37.100    24372694.164
 -29305399.117 8 -22641731.967 8  20307811.570    20307807.074          50.900
        52.000    20307807.367
  -3977838.787 6  -3058951.565 6  24596297.547    24596293.520          39.000
        36.900    24596293.344
  -6006571.936 6  -4643933.179 6  24423369.438    24423372.852          37.000
        39.600    24423372.152
 -20764327.407 7 -16195853.235 7  21952596.477    21952592.684          44.200
        47.300    21952592.453
 -13111769.658 6 -11015058.314 7  23374859.430    23374856.867          41.700
        43.700    23374856.461
 -23415586.217 8 -17363143.64546  21357366.164    21357356.859          51.300
        39.700
 -24776186.552 8 -12922524.38646  21186375.117    21186367.688          48.600
        38.300
 16  1  1  0 22  0.0000000  0 10G32G06G07G03G31G01G26G09G23G16
 -21470010.824 7 -11912263.82046  22010364.563    22010358.539          47.200
        36.400
  -6520763.148 6  -5064817.108 6  24744911.984    24744913.582          37.300
        38.600    24744913.703
  -7455632.968 6  -6411964.051 6  24356734.875    24356734.012          41.100
        37.300    24356733.840
 -29281972.383 8 -22623477.356 8  20312269.367    20312264.813          51.600
        52.700    20312264.988
  -3880391.475 6  -2983018.637 6  24614842.055    24614836.324          40.100
        36.000    24614837.148
  -5917160.406 6  -4574262.063 6  24440383.930    24440387.461          36.600
        39.500    24440386.996
 -20738372.493 7 -16175628.568 7  21957535.570    21957531.895          47.300
        46.800    21957531.898
 -13184772.570 7 -11071943.467 7  23360967.219    23360964.832          42.600
        43.600    23360965.070
 -23459593.988 8 -17397435.35646  21348992.070    21348982.473          52.100
        40.300
 -24815097.241 7 -12952844.29946  21178970.516    21178962.852          47.800
        38.200
 16  1  1  0 22 30.0000000  0 10G32G06G07G03G31G01G26G09G23G16
 -21389947.719 7 -11849876.97245  22025599.461    22025594.258          46.400
        35.900
  -6544859.796 6  -5083593.605 6  24740326.859    24740328.164          37.900
        39.500    24740328.402
  -7539332.272 6  -6477183.887 6  24340806.492    24340806.098          40.300
        37.000    24340805.809
 -29257990.411 8 -22604790.091 8  20316833.438    20316828.473          51.100
        52.400    20316828.766
  -3782994.871 6  -2907125.190 6  24633376.188    24633371.398          40.700
        38.700    24633371.750
  -5827798.605 6  -4504629.682 6  24457389.555    24457391.973          37.300
        39.400    24457391.977
 -20711845.044 7 -16154957.758 7  21962583.313    21962579.578          46.600
        47.200    21962579.582
 -13257757.129 7 -11128814.336 7  23347078.156    23347076.238          43.000
        43.700    23347076.242
 -23503479.344 8 -17431631.67046  21340640.883    21340631.227          52.100
        40.200
 -24853412.365 7 -12982700.12246  21171678.992    21171671.914          47.000
        37.800
 16  1  1  0 23  0.0000000  0 10G32G06G07G03G31G01G26G09G23G16
 -21309569.691 7 -11787244.74245  22040894.922    22040889.957          46.800
        35.600
  -6568454.089 6  -5101978.663 6  24735836.219    24735838.402          37.600
        39.000    24735838.699
  -7622858.381 6  -6542268.763 6  24324912.352    24324910.492          40.700
        36.700    24324910.789
 -29233452.505 8 -22585669.627 8  20321502.273    20321497.953          50.600
        52.500    20321498.250
  -3685650.110 6  -2831272.192 6  24651900.641    24651895.320          39.800
        37.400    24651895.148
  -5738488.318 6  -4435037.489 6  24474385.234    24474387.711          37.000
        39.400    24474387.598
 -20684744.997 7 -16133840.774 7  21967739.883    21967736.617          46.200
        47.600    21967736.328
 -13330721.936 7 -11185669.807 7  23333192.789    23333191.105          43.500
        43.600    23333191.520
 -23547240.898 8 -17465731.51546  21332313.313    21332303.773          52.500
        40.300
 -24891129.089 7 -13012089.67546  21164501.867    21164494.555          47.600
        38.200
 16  1  1  0 23 30.0000000  0 10G32G06G07G03G31G01G26G09G23G16
 -21228879.098 7 -11724368.95445  22056249.945    22056244.922          47.900
        35.900
  -6591546.333 6  -5119972.526 6  24731442.156    24731443.402          38.200
        39.600    24731443.816
  -7706211.365 6  -6607218.752 6  24309050.313    24309048.922          40.900
        37.000    24309048.984
 -29208359.610 8 -22566116.712 8  20326277.516    20326272.668          50.600
        52.600    20326272.902
  -3588359.154 6  -2755461.092 5  24670414.047    24670408.668          40.900
        35.700    24670408.672
  -5649233.055 6  -4365488.158 6  24491369.508    24491372.805          37.300
        39.000    24491372.633
 -20657073.824 7 -16112278.744 7  21973005.719    21973002.629          45.700
        47.300    21973002.750
 -13403667.256 7 -11242510.094 7  23319312.047    23319310.012          43.100
        44.100    23319309.840
 -23590877.777 8 -17499734.21246  21324009.180    21323999.465          52.700
        39.500
 -24928245.961 7 -13041011.80646  21157438.930    21157431.090          47.200
        38.200
 16  1  1  0 24  0.0000000  0 10G32G06G07G03G31G01G26G09G23G16
